"COD_FARMACIA_OD","COD_FARMACIA","FARMACIA","IVA","CAP","COD_COMUNE","COMUNE","FRAZIONE","COD_PROVINCIA","PROVINCIA","COD_REGIONE","REGIONE","DATA_INIZIO","INDIRIZZO","TIPOLOGIA","LATITUDINE_P","LONGITUDINE_P","LATITUDINE_V","LONGITUDINE_V"
"FAR042101004054","4054","SILVESTRI LUCIANA","00673580221","38028","022152","REVO'","-","TN","TRENTO","042","PROV. AUTON. TRENTO","2005-01-01","VIA J. A. MAFFEI, 8","ORDINARIA","46.4123540693265","11.0520541954953","46,4123540693265","11,0520541954953"
"FAR042101004162","4162","RAVAGNANI CHIARA","00869430223","38061","022001","ALA","-","TN","TRENTO","042","PROV. AUTON. TRENTO","2009-09-01","CORSO PASSO BUOLE, 5/A","ORDINARIA","45.7590051426327","11.0026564100186","45,7590051426327","11,0026564100186"
"FAR042101004163","4163","FRANZELLIN VITTORIO E C. SNC","02209460225","38061","022001","ALA","-","TN","TRENTO","042","PROV. AUTON. TRENTO","2011-09-01","VIA SEGANTINI, 1","ORDINARIA","45.7479086521251","11.0414606774668","45,7479086521251","11,0414606774668"
"FAR042101004164","4164","BETTINAZZI - R. & T. PHARMA SNC","02018300224","38062","022006","ARCO","-","TN","TRENTO","042","PROV. AUTON. TRENTO","2009-09-01","VIA GALAS, 49","ORDINARIA","45.9304227931688","10.9070021739945","45,9304227931688","10,9070021739945"
"FAR042101004165","4165","FAMIGLIA COOPERATIVA VALLAGARINA","00106510225","38063","022007","AVIO","-","TN","TRENTO","042","PROV. AUTON. TRENTO","2005-01-01","PIAZZA ROMA, 6","ORDINARIA","45.7321595956525","10.9198632803229","45,7321595956525","10,9198632803229"
"FAR042101004166","4166","BAILO MICHELE","02271060226","38051","022022","BORGO VALSUGANA","-","TN","TRENTO","042","PROV. AUTON. TRENTO","2013-05-01","PIAZZA DANTE ALIGHIERI, 1","ORDINARIA","46.0153100445136","11.4345899281404","46,0153100445136","11,4345899281404"
"FAR042101004167","4167","CALLIANO SAS DI VITULLO GHERTA","02167060223","38060","022035","CALLIANO","-","TN","TRENTO","042","PROV. AUTON. TRENTO","2011-07-01","VIA VALENTINI, 19","ORDINARIA","45.9345629","11.0942589","45,9345629","11,0942589"
"FAR042101004168","4168","FRANZELLIN GIANCARLO","00227460227","38033","022050","CAVALESE","-","TN","TRENTO","042","PROV. AUTON. TRENTO","2009-09-01","VIA FRATELLI BRONZETTI, 28","ORDINARIA","46.2908054279005","11.4621468378048","46,2908054279005","11,4621468378048"
"FAR042101004169","4169","ALL'ANGELO SNC","01867580225","38010","022074","DENNO","-","TN","TRENTO","042","PROV. AUTON. TRENTO","2005-01-01","VIA GUGLIELMO MARCONI, 8","ORDINARIA","46.2719475733844","11.052403821412","46,2719475733844","11,052403821412"
"FAR042101004170","4170","GIRARDI DI DOTT. C. TADDEI & C. SNC","01981650227","38064","022087","FOLGARIA","-","TN","TRENTO","042","PROV. AUTON. TRENTO","2007-04-01","VIA E. COLPI, 181","ORDINARIA","45.9090169713352","11.1996587694094","45,9090169713352","11,1996587694094"
"FAR042101004171","4171","ROMANI DI ERRIGO A. E C. SNC","02046850224","38015","022103","LAVIS","-","TN","TRENTO","042","PROV. AUTON. TRENTO","2009-09-01","VIA SEGANTINI, 1","ORDINARIA","46.1512831931641","11.1042541241409","46,1512831931641","11,1042541241409"
"FAR042101004172","4172","ROMANESE","00835070228","38056","022104","LEVICO TERME","-","TN","TRENTO","042","PROV. AUTON. TRENTO","2009-09-01","VIA REGIA, 12","ORDINARIA","46.0113979272623","11.3005470633363","46,0113979272623","11,3005470633363"
"FAR042101004173","4173","RIGONI DEL DR. RIGONI ANTONIO & C. SNC","02141050225","38035","022118","MOENA","-","TN","TRENTO","042","PROV. AUTON. TRENTO","2013-05-01","STRADA CERILO DELLANTONIO BORA, 2","ORDINARIA","46.3645137061942","11.7061404227998","46,3645137061942","11,7061404227998"
"FAR042101004174","4174","CRESCINI - DR.SSA TOGNANA","00051370229","38057","022139","PERGINE VALSUGANA","-","TN","TRENTO","042","PROV. AUTON. TRENTO","2005-01-01","PIAZZA SERRA, 8","ORDINARIA","46.0616404","11.2398474","46,0616404","11,2398474"
"FAR042101004175","4175","SCAGLIA S.A.S. DI SCAGLIA ANNA & C.","00983840224","38086","022143","PINZOLO","-","TN","TRENTO","042","PROV. AUTON. TRENTO","2013-05-01","PIAZZA S. GIACOMO, 1","ORDINARIA","46.2220374200605","10.7963137713744","46,2220374200605","10,7963137713744"
"FAR042101004176","4176","COVI ANNAMARIA","01989590227","38087","022158","RONCONE","-","TN","TRENTO","042","PROV. AUTON. TRENTO","2007-04-01","VIA NAZIONALE, 3","ORDINARIA","45.9985303442461","10.6370184064172","45,9985303442461","10,6370184064172"
"FAR042101004177","4177","ZACCHILLI VINOTTI LEONELLA","00075750224","38012","022186","TAIO","-","TN","TRENTO","042","PROV. AUTON. TRENTO","2013-03-01","VIA ROMA, 38","ORDINARIA","46.3169743035502","11.069269766697","46,3169743035502","11,069269766697"
"FAR042101004178","4178","DALL'ARMI SNC PATTINI DR. ALBERTO E DR.SSA ALESSANDRA","00337140222","38100","022205","TRENTO","-","TN","TRENTO","042","PROV. AUTON. TRENTO","2013-03-01","PIAZZA DUOMO, 10","ORDINARIA","46.0676193498462","11.1215188143335","46,0676193498462","11,1215188143335"
"FAR042101004179","4179","GALLO SNC","01855780225","38100","022205","TRENTO","-","TN","TRENTO","042","PROV. AUTON. TRENTO","2005-01-01","VIA MANTOVA, 51","ORDINARIA","45.9155143299823","10.8849798811351","45,9155143299823","10,8849798811351"
"FAR042101004180","4180","DE BATTTAGLIA SNC","02099830222","38100","022205","TRENTO","-","TN","TRENTO","042","PROV. AUTON. TRENTO","2013-03-01","PIAZZA PASI, 20","ORDINARIA","46.0622059167663","11.1117645926563","46,0622059167663","11,1117645926563"
"FAR042101004181","4181","GIUPPONI","00142960228","38060","022205","TRENTO","MATTARELLO","TN","TRENTO","042","PROV. AUTON. TRENTO","2008-01-01","VIA CATONI, 69","ORDINARIA","45.9933102","10.9749001","45,9933102","10,9749001"
"FAR042101004182","4182","BALDRACHI LUKAS","01384990220","38019","022207","TUENNO","-","TN","TRENTO","042","PROV. AUTON. TRENTO","2011-03-01","VIA E. LEONARDI, 29","ORDINARIA","46.2651735914533","10.9487329392243","46,2651735914533","10,9487329392243"
"FAR042101004183","4183","GAGLIARDI CLAUDIO","00586850224","38075","022083","FIAVE'","-","TN","TRENTO","042","PROV. AUTON. TRENTO","2005-01-01","VIA ALCIDE DE GASPERI, 1","ORDINARIA","45.9861874205662","10.8216630422551","45,9861874205662","10,8216630422551"
"FAR042101004184","4184","BRANCALEONI Renzo","01720000221","38010","022225","ZAMBANA","-","TN","TRENTO","042","PROV. AUTON. TRENTO","2005-01-01","VIA PER TRENTO, 11/B","ORDINARIA","46.1596468747837","11.0589755169334","46,1596468747837","11,0589755169334"
"FAR042101004185","4185","TESEO FRANCESCO","01947280226","38050","022188","TELVE","-","TN","TRENTO","042","PROV. AUTON. TRENTO","2012-03-01","VIA PARADISO, 2","ORDINARIA","46.1396954319267","11.4642967434695","46,1396954319267","11,4642967434695"
"FAR042101004186","4186","BOLGHERA SNC","00166280222","38100","022205","TRENTO","-","TN","TRENTO","042","PROV. AUTON. TRENTO","2014-12-01","LARGO MEDAGLIE D'ORO, 8","ORDINARIA","46.0577971934673","11.1327523327511","46,0577971934673","11,1327523327511"
"FAR042101004187","4187","NARDELLI DR. GABRIELE","01889730220","38074","022079","DRO","S. ANDREA DEI BAGNI","TN","TRENTO","042","PROV. AUTON. TRENTO","2013-03-01","STRADA GARDESANA OCC., 9/B","ORDINARIA","45.9913596636596","10.9247729886099","45,9913596636596","10,9247729886099"
"FAR042101004188","4188","VINANTE DR. GIORGIO & C. SNC","02046780223","38036","022145","POZZA DI FASSA","-","TN","TRENTO","042","PROV. AUTON. TRENTO","2013-03-01","STRADA DE MEIDA, 47","ORDINARIA","46.4285808397104","11.7261761244066","46,4285808397104","11,7261761244066"
"FAR042101004189","4189","TRINTINAGLIA GIANMARIA","00921280244","38055","022095","GRIGNO","-","TN","TRENTO","042","PROV. AUTON. TRENTO","2009-09-01","PIAZZA DANTE, 14","ORDINARIA","46.016929","11.635857","46,016929","11,635857"
"FAR042101004190","4190","COMUNALE 1","01648950226","38068","022161","ROVERETO","-","TN","TRENTO","042","PROV. AUTON. TRENTO","2009-09-01","VIA PAOLI, 19","ORDINARIA","45.8937085302942","11.0402015076214","45,8937085302942","11,0402015076214"
"FAR042101004191","4191","VILLAZZANO DI BOLEGO PAOLO","01856020225","38050","022205","TRENTO","VILLAZZANO","TN","TRENTO","042","PROV. AUTON. TRENTO","2013-03-01","VIA TAMBOSI, 2","ORDINARIA","46.0497829","11.1439821","46,0497829","11,1439821"
"FAR042101004192","4192","CREMONESI","00828140228","38041","022002","ALBIANO","-","TN","TRENTO","042","PROV. AUTON. TRENTO","2013-03-01","VIA ROMA, 17A","ORDINARIA","46.1449671070267","11.2000600793698","46,1449671070267","11,2000600793698"
"FAR042101004193","4193","PIZZO DR. PAOLO","02030200220","38057","022139","PERGINE VALSUGANA","-","TN","TRENTO","042","PROV. AUTON. TRENTO","2009-06-01","VIA BELLINI, 17","ORDINARIA","46.0616404","11.2398474","46,0616404","11,2398474"
"FAR042101004194","4194","RIGON LUCIANA","00814060224","38060","022210","VALLARSA","Raossi, 84","TN","TRENTO","042","PROV. AUTON. TRENTO","2009-09-01","-","ORDINARIA","45.7836839764063","11.1199162694893","45,7836839764063","11,1199162694893"
"FAR042101004195","4195","PAVANI LUIGI","00971660220","38068","022161","ROVERETO","FONTANELLE","TN","TRENTO","042","PROV. AUTON. TRENTO","2005-01-01","VIALE DELLA VITTORIA, 42","ORDINARIA","45.8874533935421","11.0317654771857","45,8874533935421","11,0317654771857"
"FAR042101004196","4196","MONTELISCIANI M. LORETTA","00401660220","38050","022142","PIEVE TESINO","BIENO","TN","TRENTO","042","PROV. AUTON. TRENTO","2009-09-01","VIA BRIGATA ABRUZZI, 10/A","ORDINARIA","46.0686047625162","11.6097662126501","46,0686047625162","11,6097662126501"
"FAR042101004197","4197","FARMAGEF SNC","02304350222","38010","022180","SPORMAGGIORE","-","TN","TRENTO","042","PROV. AUTON. TRENTO","2010-09-01","PIAZZA CHIESA,  1","ORDINARIA","46.204401180197","11.0092429435392","46,204401180197","11,0092429435392"
"FAR042101004198","4198","DI SEGONZANO DI DR. PIERANGELO VILLACI","02787520168","38047","022172","SEGONZANO","-","TN","TRENTO","042","PROV. AUTON. TRENTO","2013-03-01","FRAZ. SCANCIO, 26","ORDINARIA","46.1927490800325","11.2831916275084","46,1927490800325","11,2831916275084"
"FAR042101004199","4199","CESCHI LUCA","01718290222","38020","022106","LIVO","-","TN","TRENTO","042","PROV. AUTON. TRENTO","2013-05-01","VIA G. MARCONI, 86","ORDINARIA","46.4223636612322","11.0070611985411","46,4223636612322","11,0070611985411"
"FAR042101004200","4200","DALLA VALENTINA","01731500227","38020","022150","RABBI","SAN BERNARDO, 122","TN","TRENTO","042","PROV. AUTON. TRENTO","2005-01-01","-","ORDINARIA","46.39920559999999","10.8486303","46,39920559999999","10,8486303"
"FAR042101004201","4201","SAN MICHELE DOTT. DAVIDE TONON","02331550224","38010","022167","SAN MICHELE ALL'ADIGE","-","TN","TRENTO","042","PROV. AUTON. TRENTO","2005-01-01","VIA BRENNERO, 20","ORDINARIA","46.1890727967541","11.1258198550935","46,1890727967541","11,1258198550935"
"FAR042101004202","4202","SERENA DI MONTAGNIN ELENA","01743260224","38080","022021","BONDONE","Baitoni","TN","TRENTO","042","PROV. AUTON. TRENTO","2005-01-01","VIA DI MEZZO, 3","ORDINARIA","45.8080332177553","10.5404626934837","45,8080332177553","10,5404626934837"
"FAR042101004203","4203","VALLE DEI MOCHENI SNC","01887120226","38050","022168","SANT'ORSOLA TERME","Pintarei, 75/E","TN","TRENTO","042","PROV. AUTON. TRENTO","2005-01-01","LOC. PINTAREI, 75/E","ORDINARIA","46.1087705","11.3031744","46,1087705","11,3031744"
"FAR042101004204","4204","BARBACOVI GIORGIO","01226750220","38060","022003","ALDENO","-","TN","TRENTO","042","PROV. AUTON. TRENTO","2005-01-01","PIAZZA C. BATTISTI, 4","ORDINARIA","45.9720953094206","11.0935322633462","45,9720953094206","11,0935322633462"
"FAR042101004205","4205","REDI - R. & T. PHARMA SNC","01323250223","38062","022006","ARCO","-","TN","TRENTO","042","PROV. AUTON. TRENTO","2005-01-01","VIA NAS, 3","ORDINARIA","45.9172551306022","10.8784250233605","45,9172551306022","10,8784250233605"
"FAR042101004206","4206","MORELLI GIUSEPPE SNC","01813150222","38042","022009","BASELGA DI PINE'","BEDOLLO","TN","TRENTO","042","PROV. AUTON. TRENTO","2005-01-01","VIA CESARE BATTISTI, 69","ORDINARIA","46.1321200575374","11.2468391450306","46,1321200575374","11,2468391450306"
"FAR042101004207","4207","CENTRALE SAS - BALLISTA","01783350224","38051","022022","BORGO VALSUGANA","-","TN","TRENTO","042","PROV. AUTON. TRENTO","2008-01-01","CORSO AUSUGUM, 40","ORDINARIA","46.0554152254333","11.4606663226576","46,0554152254333","11,4606663226576"
"FAR042101004208","4208","OTTAVIANI FRANCO","01273520229","38060","022025","BRENTONICO","-","TN","TRENTO","042","PROV. AUTON. TRENTO","2005-01-01","VIA GIUSEPPE GARIBALDI, 9","ORDINARIA","45.8020613409721","10.9390077325141","45,8020613409721","10,9390077325141"
"FAR042101004209","4209","MAISTRI ELVIO & GIRARDI CLAUDIO SNC","01594610220","38052","022034","CALDONAZZO","-","TN","TRENTO","042","PROV. AUTON. TRENTO","2013-03-01","LOC. TROZO DEI CAVAI, 8","ORDINARIA","45.9839520661247","11.2725313859021","45,9839520661247","11,2725313859021"
"FAR042101004210","4210","RIGONI CRISTIANO","01611170224","38053","022048","CASTELLO TESINO","-","TN","TRENTO","042","PROV. AUTON. TRENTO","2008-01-01","VIA DANTE ALIGHIERI, 12/A","ORDINARIA","46.1219023022185","11.6469032548419","46,1219023022185","11,6469032548419"
"FAR042101004211","4211","SARTORI & C. SNC","02336310228","38011","022051","CAVARENO","-","TN","TRENTO","042","PROV. AUTON. TRENTO","2005-01-01","VIA DE CAMPI, 3","ORDINARIA","46.40791919999999","11.1365971","46,40791919999999","11,1365971"
"FAR042101004212","4212","FOLGARESI PAOLO","01543950222","38073","022053","CAVEDINE","-","TN","TRENTO","042","PROV. AUTON. TRENTO","2008-01-01","VIA DON NEGRI, 22","ORDINARIA","45.9868409301662","10.989954412224","45,9868409301662","10,989954412224"
"FAR042101004213","4213","MARTINI GIORGIO","01506850229","38034","022055","CEMBRA","-","TN","TRENTO","042","PROV. AUTON. TRENTO","2008-01-01","VIA IV NOVEMBRE, 44","ORDINARIA","46.17475280000001","11.2209905","46,17475280000001","11,2209905"
"FAR042101004214","4214","BETTI PAOLO","01009580224","38045","022061","CIVEZZANO","-","TN","TRENTO","042","PROV. AUTON. TRENTO","2005-01-01","PIAZZA SANTA MARIA, 4","ORDINARIA","46.0899632","11.1823868","46,0899632","11,1823868"
"FAR042101004215","4215","DIEMME FARMA SNC","01764440226","38023","022062","CLES","-","TN","TRENTO","042","PROV. AUTON. TRENTO","2015-04-01","VIA G. A. PILATI, 11","ORDINARIA","46.3477336976718","10.9893656443914","46,3477336976718","10,9893656443914"
"FAR042101004216","4216","ZONTINI BARBARA","01670050226","38083","022066","CONDINO","-","TN","TRENTO","042","PROV. AUTON. TRENTO","2005-01-01","VIA ROMA, 43","ORDINARIA","45.8817539883688","10.5939868704181","45,8817539883688","10,5939868704181"
"FAR042101004217","4217","CESCHINELLI DINO","00602060220","38085","022140","PIEVE DI BONO","-","TN","TRENTO","042","PROV. AUTON. TRENTO","2008-01-01","VIA ROMA, 9","ORDINARIA","45.9415635716799","10.6651430913003","45,9415635716799","10,6651430913003"
"FAR042101004218","4218","ALLA MADONNA DI TROTTER GIORGIO E DAMIANO SNC","01827770221","38054","022084","FIERA DI PRIMIERO","-","TN","TRENTO","042","PROV. AUTON. TRENTO","2005-01-01","VIA GUADAGNINI, 28","ORDINARIA","46.1765516","11.8292505","46,1765516","11,8292505"
"FAR042101004219","4219","DIEMME FARMA SAS DI PAOLO DE MAFFEI & C.","01764440226","38013","022088","FONDO","-","TN","TRENTO","042","PROV. AUTON. TRENTO","2015-04-01","VIA CESARE BATTISTI, 20","ORDINARIA","46.4171162798013","11.1402654172457","46,4171162798013","11,1402654172457"
"FAR042101004220","4220","FANZAGO D.RI ROBERTO E DIEGO SNC","01538290220","38046","022102","LAVARONE","GIONCHI","TN","TRENTO","042","PROV. AUTON. TRENTO","2009-09-01","VIA GIONGHI, 99","ORDINARIA","45.9420649936859","11.2867907271599","45,9420649936859","11,2867907271599"
"FAR042101004221","4221","DE PREZ","01982780221","38056","022104","LEVICO TERME","-","TN","TRENTO","042","PROV. AUTON. TRENTO","2008-01-01","VIA DANTE, 31","ORDINARIA","45.9975203025033","11.3305984683628","45,9975203025033","11,3305984683628"
"FAR042101004222","4222","COMANO TERME SNC DI BETTA PAOLA","01239230228","38070","022228","COMANO TERME","-","TN","TRENTO","042","PROV. AUTON. TRENTO","2013-05-01","VIA BATTISTI, 45","ORDINARIA","46.024138","10.8659923","46,024138","10,8659923"
"FAR042101004223","4223","TOMASI NICOLETTA","00630640225","38027","022110","MALE'","-","TN","TRENTO","042","PROV. AUTON. TRENTO","2005-01-01","PIAZZA DANTE, 1","ORDINARIA","46.3516068","10.9128757","46,3516068","10,9128757"
"FAR042101004224","4224","ZANINI PAOLO & C. SNC","01422590222","38016","022116","MEZZOCORONA","ROVERE DELLA LUNA","TN","TRENTO","042","PROV. AUTON. TRENTO","2005-01-01","PIAZZA SAN GOTTARDO, 13","ORDINARIA","46.21510650296","11.1192545228305","46,21510650296","11,1192545228305"
"FAR042101004225","4225","CAMPAGNOLA GIUSEPPE & C. SNC","01813570221","38017","022117","MEZZOLOMBARDO","-","TN","TRENTO","042","PROV. AUTON. TRENTO","2005-01-01","VIA ALCIDE DE GASPERI, 19","ORDINARIA","46.2073466498511","11.091409194271","46,2073466498511","11,091409194271"
"FAR042101004226","4226","MONTALBANO SNC DI DR. KOSTNER FRANCESCO E CANDIOLI ROBERTO","02207580222","38065","022123","MORI","-","TN","TRENTO","042","PROV. AUTON. TRENTO","2015-03-01","VIA MALFATTI, 6","ORDINARIA","45.8566608968003","10.9517733419702","45,8566608968003","10,9517733419702"
"FAR042101004227","4227","GALLINA FRANCA","01376430227","38020","022137","PELLIZZANO","-","TN","TRENTO","042","PROV. AUTON. TRENTO","2005-01-01","VIA NAZIONALE, 49","ORDINARIA","46.3111888266907","10.7236486991021","46,3111888266907","10,7236486991021"
"FAR042101004228","4228","DE VARDA","00182490227","38057","022139","PERGINE VALSUGANA","-","TN","TRENTO","042","PROV. AUTON. TRENTO","2009-09-01","VIA CESARE BATTISTI, 26","ORDINARIA","46.0616404","11.2398474","46,0616404","11,2398474"
"FAR042101004229","4229","A. FOLETTO DI FOLETTO A. & C.  SNC","01406250223","38060","022229","LEDRO","-","TN","TRENTO","042","PROV. AUTON. TRENTO","2013-05-01","VIA CASSONI, 3","ORDINARIA","45.8896543","10.7313102","45,8896543","10,7313102"
"FAR042101004230","4230","DEGASPERI ENRICO","01312580226","38030","022092","GIOVO","VERLA","TN","TRENTO","042","PROV. AUTON. TRENTO","2005-01-01","VIA AI MOLINI, 1","ORDINARIA","46.1558787","11.1524547","46,1558787","11,1524547"
"FAR042101004231","4231","PASI SNC  DI PASI LUISA & C.","02186990228","38037","022147","PREDAZZO","-","TN","TRENTO","042","PROV. AUTON. TRENTO","2013-05-01","VIA ROMA, 1/C","ORDINARIA","46.3116641911769","11.602528688639","46,3116641911769","11,602528688639"
"FAR042101004232","4232","TOMASI MONICA","01448870228","38020","022121","MONCLASSICO","Presson","TN","TRENTO","042","PROV. AUTON. TRENTO","2005-01-01","VIA BRESCIA, 82","ORDINARIA","46.3320314741192","10.8808911911955","46,3320314741192","10,8808911911955"
"FAR042101004234","4234","ACCORSI MASSIMO & C.  SNC","01336320229","38066","022153","RIVA DEL GARDA","-","TN","TRENTO","042","PROV. AUTON. TRENTO","2005-01-01","VIA MAFFEI,8","ORDINARIA","45.88517299999999","10.8409729","45,88517299999999","10,8409729"
"FAR042101004235","4235","MUTALIPASSI LUCA & C. SNC","01349200228","38066","022153","RIVA DEL GARDA","-","TN","TRENTO","042","PROV. AUTON. TRENTO","2013-03-01","VIALE LUTTI, 12","ORDINARIA","45.8895860775008","10.8224217268873","45,8895860775008","10,8224217268873"
"FAR042101004236","4236","S. LUCIA DI GENEM DR. KAMAL","01553850221","38050","022156","RONCEGNO","-","TN","TRENTO","042","PROV. AUTON. TRENTO","2015-04-01","PIAZZA MONTEBELLO, 5","ORDINARIA","46.0510607","11.4093559","46,0510607","11,4093559"
"FAR042101004237","4237","SANTONI DR. GIORGIO & C. SNC","02049700228","38068","022161","ROVERETO","Borgo Sacco","TN","TRENTO","042","PROV. AUTON. TRENTO","2010-09-01","PIAZZA F. FILZI, 21","ORDINARIA","45.8915375","11.0384953","45,8915375","11,0384953"
"FAR042101004238","4238","COBELLI SAS DI DE COBELLI FLAVIA & C.","02218940225","38068","022161","ROVERETO","-","TN","TRENTO","042","PROV. AUTON. TRENTO","2013-05-01","VIA GIUSEPPE MAZZINI, 10","ORDINARIA","45.89010725","11.04341225","45,89010725","11,04341225"
"FAR042101004239","4239","SOAVE DI SOAVE ALBERTO SNC","00036930220","38068","022161","ROVERETO","-","TN","TRENTO","042","PROV. AUTON. TRENTO","2009-10-01","PIAZZA ERBE, 17","ORDINARIA","45.8915375","11.0384953","45,8915375","11,0384953"
"FAR042101004240","4240","BARBACOVI DI BOLEGO MARGHERITA & C. SNC","01735440222","38068","022161","ROVERETO","-","TN","TRENTO","042","PROV. AUTON. TRENTO","2005-01-01","VIA BENACENSE, 9/B","ORDINARIA","45.88411165","11.04166115","45,88411165","11,04166115"
"FAR042101004241","4241","THALER","03176140238","38068","022161","ROVERETO","-","TN","TRENTO","042","PROV. AUTON. TRENTO","2005-01-01","VIA DANTE, 3","ORDINARIA","45.88942","11.04034","45,88942","11,04034"
"FAR042101004242","4242","CATTANI PAOLO","01338480229","38088","022179","SPIAZZO","-","TN","TRENTO","042","PROV. AUTON. TRENTO","2005-01-01","VIA S. VIGILIO, 83","ORDINARIA","46.1014148698208","10.7373486216062","46,1014148698208","10,7373486216062"
"FAR042101004243","4243","STENICO E SAN LORENZO DI POLLA GABRIELE E SARTORI MAURA SNC","02164930220","38070","022182","STENICO","-","TN","TRENTO","042","PROV. AUTON. TRENTO","2013-03-01","PIAZZA G. PRATI, 11","ORDINARIA","46.0981455715646","10.8413250782721","46,0981455715646","10,8413250782721"
"FAR042101004245","4245","FUSI ALESSANDRO","01845590221","38089","022183","STORO","-","TN","TRENTO","042","PROV. AUTON. TRENTO","2005-01-01","VIA G. GARIBALDI, 125","ORDINARIA","45.8487404217364","10.5594192760137","45,8487404217364","10,5594192760137"
"FAR042101004246","4246","BORSATO LUIGI","01298160225","38059","022185","STRIGNO","-","TN","TRENTO","042","PROV. AUTON. TRENTO","2013-03-01","VIA ROMA, 29","ORDINARIA","46.066631","11.523447","46,066631","11,523447"
"FAR042101004247","4247","DONATI BRUNO","01621950227","38038","022196","TESERO","-","TN","TRENTO","042","PROV. AUTON. TRENTO","2009-09-01","VIA ROMA, 21","ORDINARIA","46.2891041386364","11.4636325431318","46,2891041386364","11,4636325431318"
"FAR042101004248","4248","BONI GUIDO E GIULIO SNC","01403760224","38079","022199","TIONE DI TRENTO","-","TN","TRENTO","042","PROV. AUTON. TRENTO","2005-01-01","VIALE DANTE, 42","ORDINARIA","46.03341","10.7245","46,03341","10,7245"
"FAR042101004249","4249","S. BARTOLAMEO DOTT. C. BERTOLINI & C. SNC","00672310224","38100","022205","TRENTO","-","TN","TRENTO","042","PROV. AUTON. TRENTO","2005-01-01","VIALE VERONA, 92","ORDINARIA","46.0427575586414","11.1314631169961","46,0427575586414","11,1314631169961"
"FAR042101004250","4250","LEPORE DR. MARCO","00639430222","38100","022205","TRENTO","-","TN","TRENTO","042","PROV. AUTON. TRENTO","2013-05-01","VIA MANZONI, 7/A","ORDINARIA","46.0748132409383","11.1251346567747","46,0748132409383","11,1251346567747"
"FAR042101004251","4251","ALLA MADONNA DR. GIANMARCO CASAGRANDE & C. SNC","01735670224","38122","022205","TRENTO","-","TN","TRENTO","042","PROV. AUTON. TRENTO","2013-03-01","VIA G. MANCI, 42","ORDINARIA","46.0622059167663","11.1117645926563","46,0622059167663","11,1117645926563"
"FAR042101004252","4252","AI SOLTERI-GADOTTI ANDREA &C.SNC","00171990229","38121","022205","TRENTO","-","TN","TRENTO","042","PROV. AUTON. TRENTO","2013-03-01","VIA R. LUNELLI, 9","ORDINARIA","46.09211699999999","11.11746","46,09211699999999","11,11746"
"FAR042101004253","4253","SANTA CHIARA SNC DEI DOTT. ALESSIA ED EDOARDO ABBONDI","01610260224","38100","022205","TRENTO","-","TN","TRENTO","042","PROV. AUTON. TRENTO","2013-03-01","VIA SANTA CROCE, 57","ORDINARIA","46.0125447976514","11.2950495625519","46,0125447976514","11,2950495625519"
"FAR042101004254","4254","BRETTA GIORGIO","00863330254","38086","022143","PINZOLO","MADONNA DI CAMPIGLIO","TN","TRENTO","042","PROV. AUTON. TRENTO","2005-01-01","VIALE DOLOMITI BRENTA, 44","ORDINARIA","46.2220374200605","10.7963137713744","46,2220374200605","10,7963137713744"
"FAR042101004255","4255","BOSSINI SANDRA","01796320222","38010","022005","ANDALO","-","TN","TRENTO","042","PROV. AUTON. TRENTO","2013-03-01","VIA PONTE LAMBIN, 27/A","ORDINARIA","46.1627028634106","10.9950609598302","46,1627028634106","10,9950609598302"
"FAR042101004256","4256","TURAZZA LUIGI","01794470227","38070","022215","VEZZANO","-","TN","TRENTO","042","PROV. AUTON. TRENTO","2009-09-01","VIA ROMA, 1","ORDINARIA","46.0779043256191","10.9991219054545","46,0779043256191","10,9991219054545"
"FAR042101004257","4257","DE PROBIZER PAOLO & C. SNC","02368290223","38060","022222","VILLA LAGARINA","-","TN","TRENTO","042","PROV. AUTON. TRENTO","2015-04-01","VIA XXV APRILE, 46","ORDINARIA","45.9191875","11.0600981","45,9191875","11,0600981"
"FAR042101004258","4258","LADINA DI DOTT. GIOVANNI ROMANO & C. SNC","02312850221","38032","022039","CANAZEI","-","TN","TRENTO","042","PROV. AUTON. TRENTO","2005-01-01","VIA DOLOMITI, 44","ORDINARIA","46.47774","11.76887","46,47774","11,76887"
"FAR042101004259","4259","CHINAGLIA MONICA","01370730226","38069","022124","NAGO-TORBOLE","TORBOLE","TN","TRENTO","042","PROV. AUTON. TRENTO","2013-03-01","VIA MATTEOTTI, 62","ORDINARIA","45.8725644012506","10.8745116195109","45,8725644012506","10,8745116195109"
"FAR042101004260","4260","FONTANA MARCELLA E C. SNC","01458230222","38121","022205","TRENTO","GARDOLO","TN","TRENTO","042","PROV. AUTON. TRENTO","2013-03-01","VIA MARCO POLA, 2","ORDINARIA","46.1077103208361","11.1128169933321","46,1077103208361","11,1128169933321"
"FAR042101004261","4261","SAN LORENZO","01709540221","38100","022205","TRENTO","-","TN","TRENTO","042","PROV. AUTON. TRENTO","2005-01-01","PIAZZA G. CANTORE, 1","ORDINARIA","46.0696924","11.1210886","46,0696924","11,1210886"
"FAR042101004262","4262","ZONTA ADRIANA","00606920221","38050","022115","MEZZANO","-","TN","TRENTO","042","PROV. AUTON. TRENTO","2013-03-01","VIA ROMA, 72/A","ORDINARIA","46.1545569","11.805873","46,1545569","11,805873"
"FAR042101004263","4263","BOURLOT CARLA","01638350221","38024","022136","PEIO","COGOLO","TN","TRENTO","042","PROV. AUTON. TRENTO","2013-03-01","VIA ROGE, 9","ORDINARIA","46.3710056000803","10.652750673773","46,3710056000803","10,652750673773"
"FAR042101004264","4264","BETTA MARCO","01457840229","38040","022205","TRENTO","RAVINA","TN","TRENTO","042","PROV. AUTON. TRENTO","2005-01-01","VIA HERRSCHING, 1","ORDINARIA","46.0622059167663","11.1117645926563","46,0622059167663","11,1117645926563"
"FAR042101004265","4265","DIEMME FARMA SAS DI PAOLO E MAFFEI & C.","01764440226","38010","022067","COREDO","COREDO","TN","TRENTO","042","PROV. AUTON. TRENTO","2015-04-01","PIAZZA DEI CIGNI, 1","ORDINARIA","46.349715476156","11.1328072982685","46,349715476156","11,1328072982685"
"FAR042101004266","4266","MANFREDI CRISTINA","01571630225","38049","022219","VIGOLO VATTARO","-","TN","TRENTO","042","PROV. AUTON. TRENTO","2005-01-01","VIA DELLA FRICCA, 12","ORDINARIA","46.004407","11.195213","46,004407","11,195213"
"FAR042101004267","4267","SCERRA VINCENZA","01018070225","38050","022038","CANAL SAN BOVO","-","TN","TRENTO","042","PROV. AUTON. TRENTO","2005-01-01","VIA ROMA, 39","ORDINARIA","46.1991541767805","11.7002338696905","46,1991541767805","11,7002338696905"
"FAR042101004270","4270","FERRI","00661510222","38121","022205","TRENTO","MARTIGNANO","TN","TRENTO","042","PROV. AUTON. TRENTO","2013-03-01","VIA FORMIGHETA, 1","ORDINARIA","46.0696924","11.1210886","46,0696924","11,1210886"
"FAR042101004271","4271","TRENTINI ANGELO","01232670222","38054","022174","SIROR","S. MARTINO DI CASTROZZA","TN","TRENTO","042","PROV. AUTON. TRENTO","2005-01-01","VIA PASSO ROLLE, 161","ORDINARIA","46.2492896751533","11.789688409407","46,2492896751533","11,789688409407"
"FAR042101004272","4272","DE GERLONI DR. PIER FRANCESCO","01229140221","38123","022205","TRENTO","SOPRAMONTE, 205 F","TN","TRENTO","042","PROV. AUTON. TRENTO","2013-03-01","LOC. SOPRAMONTE, 205 F","ORDINARIA","46.0622059167663","11.1117645926563","46,0622059167663","11,1117645926563"
"FAR042101004273","4273","MOLARI IVANA","01813690227","38039","022217","VIGO DI FASSA","-","TN","TRENTO","042","PROV. AUTON. TRENTO","2013-03-01","PIAZZA DEI VICH, 4","ORDINARIA","46.3761187214135","11.6614721879533","46,3761187214135","11,6614721879533"
"FAR042101004274","4274","ACCORSI ELENA & C. SAS","01985610227","38066","022153","RIVA DEL GARDA","Varone","TN","TRENTO","042","PROV. AUTON. TRENTO","2009-09-01","VIA DEGLI OLEANDRI, 23","ORDINARIA","45.8976952008556","10.8442243924117","45,8976952008556","10,8442243924117"
"FAR042101004275","4275","VINANTE GIORGIO E C. SNC","02046780223","38030","022047","CASTELLO-MOLINA DI FIEMME","-","TN","TRENTO","042","PROV. AUTON. TRENTO","2013-03-01","VIA LATEMAR, 1/A","ORDINARIA","46.2817897601343","11.4320162612705","46,2817897601343","11,4320162612705"
"FAR042101004276","4276","VERMIGLIO","00689440220","38029","022213","VERMIGLIO","-","TN","TRENTO","042","PROV. AUTON. TRENTO","2005-01-01","PIAZZA PAPA GIOVANNI XXIII","ORDINARIA","46.2696160884184","10.6463787491706","46,2696160884184","10,6463787491706"
"FAR042101004277","4277","MORELLI UMBERTO","01436050221","38060","022135","RONZO-CHIENIS","-","TN","TRENTO","042","PROV. AUTON. TRENTO","2009-09-01","VIA A. MANZONI, 5","ORDINARIA","45.8916597","10.9525689","45,8916597","10,9525689"
"FAR042101004278","4278","DI GARDOLO DI  BRANDOLANI RENATO","01803140225","38014","022205","TRENTO","GARDOLO","TN","TRENTO","042","PROV. AUTON. TRENTO","2009-10-01","VIA SOPRASASSO, 32/7","ORDINARIA","46.1066852","11.1119955","46,1066852","11,1119955"
"FAR042101004279","4279","DI MOLVENO","01644450221","38018","022120","MOLVENO","-","TN","TRENTO","042","PROV. AUTON. TRENTO","2005-01-01","PIAZZA GUGLIELMO MARCONI, 1/A","ORDINARIA","46.1425221390597","10.9661351527025","46,1425221390597","10,9661351527025"
"FAR042101004280","4280","MONTE ALBANO SNC","02207580222","38065","022123","MORI","-","TN","TRENTO","042","PROV. AUTON. TRENTO","2011-09-01","VIA TERRA NERA, 45/1B","ORDINARIA","45.8566608968003","10.9517733419702","45,8566608968003","10,9517733419702"
"FAR042101004281","4281","CATANZARO MARIA GRAZIA","01798760227","38010","022081","FAI DELLA PAGANELLA","-","TN","TRENTO","042","PROV. AUTON. TRENTO","2005-01-01","VIA VILLA, 27","ORDINARIA","46.1793313","11.0689304","46,1793313","11,0689304"
"FAR042101016627","16627","COMUNALE SAN GIUSEPPE","01581140223","38100","022205","TRENTO","-","TN","TRENTO","042","PROV. AUTON. TRENTO","2009-03-01","VIA VITTORIO VENETO, 39","ORDINARIA","46.05885165","11.1247846","46,05885165","11,1247846"
"FAR042101016651","16651","COMUNALE 2","01648950226","38068","022161","ROVERETO","-","TN","TRENTO","042","PROV. AUTON. TRENTO","2009-09-01","VIA BENACENSE, 43","ORDINARIA","45.88411165","11.04166115","45,88411165","11,04166115"
"FAR042101016664","16664","COMUNALE N.4 CLARINA","01581140223","38100","022205","TRENTO","-","TN","TRENTO","042","PROV. AUTON. TRENTO","2009-03-01","VIA DEGASPERI","ORDINARIA","46.0908623121858","11.184660339868","46,0908623121858","11,184660339868"
"FAR042101016665","16665","COMUNALE N.5 S. DONA'","01581140223","38100","022205","TRENTO","S. Dona, 51","TN","TRENTO","042","PROV. AUTON. TRENTO","2013-03-01","LOC. SAN DON, 50","ORDINARIA","46.0622059167663","11.1117645926563","46,0622059167663","11,1117645926563"
"FAR042101016670","16670","COMUNALE N.3 PIO X","01581140223","38100","022205","TRENTO","-","TN","TRENTO","042","PROV. AUTON. TRENTO","2009-03-01","VIA SAN PIO X, 77","ORDINARIA","46.0524938275703","11.1198202997403","46,0524938275703","11,1198202997403"
"FAR042101016672","16672","COMUNALE N.6 POVO","01581140223","38100","022205","TRENTO","PANTE' DI POVO","TN","TRENTO","042","PROV. AUTON. TRENTO","2009-03-01","PIAZZA MANCI, 5","ORDINARIA","46.1385683241641","11.1140450714852","46,1385683241641","11,1140450714852"
"FAR042101016675","16675","COMUNALE N.7 MEANO","01581140223","38100","022205","TRENTO","MEANO, 101","TN","TRENTO","042","PROV. AUTON. TRENTO","2009-03-01","VIA DELLE SUGARINE, 30","ORDINARIA","46.1274664","11.1164557","46,1274664","11,1164557"
"FAR042101016677","16677","COMUNALE N.8 MADONNA BIANCA","01581140223","38100","022205","TRENTO","Mad. Bianca","TN","TRENTO","042","PROV. AUTON. TRENTO","2009-03-01","PIAZZALE EUROPA, 8","ORDINARIA","46.0622059167663","11.1117645926563","46,0622059167663","11,1117645926563"
"FAR042101016681","16681","COMUNALE 3","01648950226","38068","022161","ROVERETO","-","TN","TRENTO","042","PROV. AUTON. TRENTO","2015-02-01","VIALE TRENTO","ORDINARIA","45.9029876951056","11.0422488803273","45,9029876951056","11,0422488803273"
"FAR042101016694","16694","FARMACIA COMUNALE OLTRESARCA","01581140223","38062","022006","ARCO","Bolognano","TN","TRENTO","042","PROV. AUTON. TRENTO","2009-03-01","VIA DELLA STAZIONE, 6","ORDINARIA","45.91217","10.90198","45,91217","10,90198"
"FAR042101016698","16698","COMUNALE N.9 PIEDICASTELLO","01581140223","38100","022205","TRENTO","Piedicastello","TN","TRENTO","042","PROV. AUTON. TRENTO","2009-03-01","VIA BRESCIA, 19/A","ORDINARIA","46.0706761122494","11.1134151046456","46,0706761122494","11,1134151046456"
"FAR042101016702","16702","COMUNALE SAN ROCCO","01581140223","38060","022224","VOLANO","-","TN","TRENTO","042","PROV. AUTON. TRENTO","2009-03-01","VIA 3 NOVEMBRE, 7","ORDINARIA","45.9331674745026","11.0940766642749","45,9331674745026","11,0940766642749"
"FAR042101016705","16705","FARMACIA COMUNALE SAN GIUSEPPE","01581140223","38066","022153","RIVA DEL GARDA","-","TN","TRENTO","042","PROV. AUTON. TRENTO","2009-03-01","VIALE TRENTO, 96","ORDINARIA","45.8908885137457","10.8463120012802","45,8908885137457","10,8463120012802"
"FAR042101016707","16707","FARMACIA COMUNALE SAN CRISTOFORO","01581140223","38057","022139","PERGINE VALSUGANA","-","TN","TRENTO","042","PROV. AUTON. TRENTO","2009-03-01","VIALE EUROPA, 10","ORDINARIA","46.0616404","11.2398474","46,0616404","11,2398474"
"FAR042101016971","16971","COMUNALE N.2 AL S. CAMILLO","01581140223","38100","022205","TRENTO","-","TN","TRENTO","042","PROV. AUTON. TRENTO","2009-03-01","VIA GIOVANNELLI, 5","ORDINARIA","46.2905400810553","11.4387214382326","46,2905400810553","11,4387214382326"
"FAR042101017036","17036","COMUNALE PIETRAMURATA","01581140223","38070","022079","DRO","Pietramurata","TN","TRENTO","042","PROV. AUTON. TRENTO","2009-03-01","VIA BORGO NUOVO, 39","ORDINARIA","46.0166250533252","10.9416918996483","46,0166250533252","10,9416918996483"
"FAR042101017037","17037","FARMACIA COMUNALE S. UDALRICO","01581140223","38015","022103","LAVIS","-","TN","TRENTO","042","PROV. AUTON. TRENTO","2009-03-01","PIAZZA CESARE BATTISTI, 28","ORDINARIA","46.1512831931641","11.1042541241409","46,1512831931641","11,1042541241409"
"FAR042101017110","17110","COMUNALE G.P. ADAMI","01581140223","38060","022144","POMAROLO","-","TN","TRENTO","042","PROV. AUTON. TRENTO","2005-01-01","VIA 3 NOVEMBRE, 10","ORDINARIA","45.9293739971436","11.0636538484615","45,9293739971436","11,0636538484615"
"FAR042101017217","17217","DISPENSARIO DI STENICO SNC","-","38078","022166","SAN LORENZO IN BANALE","-","TN","TRENTO","042","PROV. AUTON. TRENTO","2013-04-01","-","DISPENSARIO","46.0767045","10.9092711","46,0767045","10,9092711"
"FAR042101017295","17295","VENEZIAN PATRIZIA","01920280227","38062","022006","ARCO","-","TN","TRENTO","042","PROV. AUTON. TRENTO","2005-01-01","VIA NEGRELLI, 12","ORDINARIA","45.9186694","10.8669217","45,9186694","10,8669217"
"FAR042101017316","17316","COMUNALE N.4 DI ISERA","01581140223","38060","022098","ISERA","-","TN","TRENTO","042","PROV. AUTON. TRENTO","2009-09-01","VIA C. CAVALIERI, 4/A","ORDINARIA","45.8939300176161","10.9979685227439","45,8939300176161","10,9979685227439"
"FAR042101017591","17591","SUCCURSALE GALLINA FRANCA","-","38020","022114","MEZZANA","-","TN","TRENTO","042","PROV. AUTON. TRENTO","2007-07-01","VIA IV NOVEMBRE","SUCCURSALE","46.3237313532266","10.8013158403302","46,3237313532266","10,8013158403302"
"FAR042101017592","17592","DISPENSARIO DR.SSA GALLINA FRANCA","-","38020","022114","MEZZANA","Marilleva 1400","TN","TRENTO","042","PROV. AUTON. TRENTO","2007-07-01","-","DISPENSARIO STAGIONALE","46.3237313532266","10.8013158403302","46,3237313532266","10,8013158403302"
"FAR042101017605","17605","DISPENSARIO DR. FOLETTO Snc","-","38060","022229","LEDRO","TIARNO DI SOTTO","TN","TRENTO","042","PROV. AUTON. TRENTO","2013-03-01","VIA VITTORIO EMANUELE, 13","DISPENSARIO","45.894495","10.684473","45,894495","10,684473"
"FAR042101017607","17607","DISPENSARIO DR.SSA COVI","-","38081","022024","BREGUZZO","-","TN","TRENTO","042","PROV. AUTON. TRENTO","2007-07-01","PIAZZA CESARE BATTISTI","DISPENSARIO","46.0079083","10.699332","46,0079083","10,699332"
"FAR042101017608","17608","SUCCURSALE TOMASI MONICA","-","38064","022075","DIMARO","FOLGARIDA","TN","TRENTO","042","PROV. AUTON. TRENTO","2007-07-01","PIAZZALE FOLGARIDA","SUCCURSALE","46.2905812296433","10.8785019243833","46,2905812296433","10,8785019243833"
"FAR042101017609","17609","DISPENSARIO DR. CATTANI PAOLO","-","83081","022029","CADERZONE","-","TN","TRENTO","042","PROV. AUTON. TRENTO","2007-07-01","VIA ARMANDO DIAZ,  1","DISPENSARIO","46.13004000000001","10.758036","46,13004000000001","10,758036"
"FAR042101017610","17610","DISPENSARIO DR. BORSATO LUIGI","-","38052","022130","OSPEDALETTO","-","TN","TRENTO","042","PROV. AUTON. TRENTO","2007-07-01","VIA ROMA, 30","DISPENSARIO","46.0448557333752","11.5492038958439","46,0448557333752","11,5492038958439"
"FAR042101017611","17611","LADINA (SUCCURSALE)","-","38031","022036","CAMPITELLO DI FASSA","-","TN","TRENTO","042","PROV. AUTON. TRENTO","2007-07-01","VIA DOLOMITI, 44","SUCCURSALE","46.4904115339574","11.7109587382254","46,4904115339574","11,7109587382254"
"FAR042101017613","17613","DISPENSARIO VINANTE GIORGIO E C. SNC","-","38030","022047","CASTELLO-MOLINA DI FIEMME","Molina di Fiemme","TN","TRENTO","042","PROV. AUTON. TRENTO","2013-03-01","VIA SEGHERIE, 74","DISPENSARIO","46.2723420099138","11.4210023943257","46,2723420099138","11,4210023943257"
"FAR042101017615","17615","DISPENSARIO PASI","-","38030","022226","ZIANO DI FIEMME","-","TN","TRENTO","042","PROV. AUTON. TRENTO","2007-07-01","PIAZZA IV NOVEMBRE, 2","DISPENSARIO","46.2696363876654","11.5827165518511","46,2696363876654","11,5827165518511"
"FAR042101017620","17620","DISPENSARIO CALLIANO SAS DI  VITULLO GHERTA","-","38060","022128","NOMI","-","TN","TRENTO","042","PROV. AUTON. TRENTO","2013-03-01","VIA PAISSAN, 25","DISPENSARIO","45.928599","11.071881","45,928599","11,071881"
"FAR042101017621","17621","DISPENSARIO STAGIONALE","-","38010","022052","CAVEDAGO","-","TN","TRENTO","042","PROV. AUTON. TRENTO","2007-07-01","-","DISPENSARIO STAGIONALE","46.1849438268682","11.010115588658","46,1849438268682","11,010115588658"
"FAR042101017624","17624","DISPENSARIO DR. ZANINI Snc","-","38030","022160","ROVERE' DELLA LUNA","-","TN","TRENTO","042","PROV. AUTON. TRENTO","2013-03-01","PIAZZA UNIT D'ITALIA, 10A","DISPENSARIO","46.2497503568464","11.170036999747","46,2497503568464","11,170036999747"
"FAR042101017625","17625","SUCCURSALE ASCANIO GIANLUCA","-","38020","022213","VERMIGLIO","PASSO TONALE","TN","TRENTO","042","PROV. AUTON. TRENTO","2007-07-01","VIA NAZIONALE","SUCCURSALE","46.259867","10.585872","46,259867","10,585872"
"FAR042101017627","17627","DISPENSARIO DR. TRINTINAGLIA G.MARIA","-","38050","022095","GRIGNO","TEZZE VALSUGANA","TN","TRENTO","042","PROV. AUTON. TRENTO","2007-07-01","VIA NAZIONALE","DISPENSARIO","45.9942077675575","11.6331029084974","45,9942077675575","11,6331029084974"
"FAR042101017628","17628","DISPENSARIO D.SSA MONTELISCIANI M.LORETA","-","38050","022015","BIENO","BIENO","TN","TRENTO","042","PROV. AUTON. TRENTO","2007-07-01","VIA AMMIRAGLIO BETOLO, 5","DISPENSARIO","46.0989757301504","11.5638552571326","46,0989757301504","11,5638552571326"
"FAR042101017630","17630","DISPENSARIO FARMACIA MORELLI SNC","-","38043","022011","BEDOLLO","BEDOLLO","TN","TRENTO","042","PROV. AUTON. TRENTO","2007-07-01","VIA VERDI, 35","DISPENSARIO","46.1618911","11.3034198","46,1618911","11,3034198"
"FAR042101017631","17631","DISPENSARIO DR. TONFOLINI","-","38010","022037","CAMPODENNO","-","TN","TRENTO","042","PROV. AUTON. TRENTO","2007-07-01","PIAZZA CENTRALE","DISPENSARIO","46.248332022495","11.0042197966811","46,248332022495","11,0042197966811"
"FAR042101017716","17716","DISPENSARIO DR. KOSTNER FRANCESCO","-","38060","022161","ROVERETO","MARCO","TN","TRENTO","042","PROV. AUTON. TRENTO","2013-03-01","VIA VECCHIO ALVEO, 8","DISPENSARIO","45.8393356853709","11.0018249355173","45,8393356853709","11,0018249355173"
"FAR042101018168","18168","FARMACIE COMUNALI SPA","01581140223","38100","022205","TRENTO","-","TN","TRENTO","042","PROV. AUTON. TRENTO","2007-12-01","VIA ASILO PEDROTTI, 18","ORDINARIA","46.0589218431499","11.1257667774255","46,0589218431499","11,1257667774255"
"FAR042101018181","18181","COMUNALE COGNOLA","01581140223","38050","022205","TRENTO","-","TN","TRENTO","042","PROV. AUTON. TRENTO","2013-03-01","P.ZZA DELL'ARGENTARIO, 10","ORDINARIA","46.0622059167663","11.1117645926563","46,0622059167663","11,1117645926563"
"FAR042101018319","18319","DISPENSARIO FARMACIA CHINAGLIA MONICA","01370730226","38060","022124","NAGO-TORBOLE","NAGO","TN","TRENTO","042","PROV. AUTON. TRENTO","2009-02-01","VIA STAZIONE, 2","DISPENSARIO","45.8796317371432","10.8930089786585","45,8796317371432","10,8930089786585"
"FAR042101018320","18320","DISPENSARIO FARMACEUTICO DI FORNACE","00828140228","38040","022089","FORNACE","-","TN","TRENTO","042","PROV. AUTON. TRENTO","2009-02-01","VIA DEL BORGOLET, 12/A","DISPENSARIO","46.1231874045505","11.2064208000268","46,1231874045505","11,2064208000268"
"FAR042101018325","18325","DISPENSARIO BLEGGIO SUPERIORE","00586850224","38071","022017","BLEGGIO SUPERIORE","SANTA CROCE","TN","TRENTO","042","PROV. AUTON. TRENTO","2009-03-01","VIA ROMA, 7","DISPENSARIO","46.0109072555792","10.7944126381545","46,0109072555792","10,7944126381545"
"FAR042101018352","18352","SAN ROCCO","02117240222","38010","022126","NAVE SAN ROCCO","-","TN","TRENTO","042","PROV. AUTON. TRENTO","2013-04-01","VIA IV NOVEMBRE","ORDINARIA","46.16728699999999","11.110436","46,16728699999999","11,110436"
"FAR042101018390","18390","DI FONSO DR. FRANCESCA","06654450961","38121","022205","TRENTO","Roncafort","TN","TRENTO","042","PROV. AUTON. TRENTO","2013-04-01","VIA LUIGI CANEPPELE, 31/A","ORDINARIA","46.0974127707554","11.1029610645526","46,0974127707554","11,1029610645526"
"FAR042101018393","18393","RUPERTI SALVATORE","03553690243","38057","022139","PERGINE VALSUGANA","MADRANO","TN","TRENTO","042","PROV. AUTON. TRENTO","2009-11-01","VIA D'OLTREFERSINA, 133","ORDINARIA","46.08323575","11.21914735","46,08323575","11,21914735"
"FAR042101018411","18411","SARCHE","02135830228","38072","022031","CALAVINO","Sarche","TN","TRENTO","042","PROV. AUTON. TRENTO","2010-02-01","VIA GERONI, 5","ORDINARIA","46.0485028276484","10.9758140551811","46,0485028276484","10,9758140551811"
"FAR042101018432","18432","FARMACIA COMUNALE CASTELNUOVO","02116430220","38050","022049","CASTELNUOVO","-","TN","TRENTO","042","PROV. AUTON. TRENTO","2010-02-01","PIAZZA MUNICIPIO, 13/B","ORDINARIA","46.05225","11.494495","46,05225","11,494495"
"FAR042101018464","18464","DI CARANO SNC","02305720225","38033","022041","CARANO","-","TN","TRENTO","042","PROV. AUTON. TRENTO","2015-02-01","VIA GIOVANELLI, 38","ORDINARIA","46.2983914049297","11.406864080696","46,2983914049297","11,406864080696"
"FAR042101018642","18642","COMUNALE TENNO","-","38060","022191","TENNO","-","TN","TRENTO","042","PROV. AUTON. TRENTO","2011-11-01","VIA DEI LAGHI, 4","ORDINARIA","45.9227632007897","10.830151590822","45,9227632007897","10,830151590822"
"FAR042101018668","18668","COMUNALE DI BESENELLO","-","38060","022013","BESENELLO","-","TN","TRENTO","042","PROV. AUTON. TRENTO","2012-01-01","VIA ROMA, 6/A","ORDINARIA","45.9385840088118","11.1103068808492","45,9385840088118","11,1103068808492"
"FAR042101018822","18822","SAN GIORGIO","02094520224","38068","022161","ROVERETO","-","TN","TRENTO","042","PROV. AUTON. TRENTO","2013-06-01","VIA UNIONE, 83","ORDINARIA","45.8952385","11.0276615","45,8952385","11,0276615"
"FAR042101018834","18834","CAMPAGNOLO","03673210617","38123","022205","TRENTO","Romagnano","TN","TRENTO","042","PROV. AUTON. TRENTO","2013-07-01","VIA ALLE SETTE FONTANE","ORDINARIA","46.0696924","11.1210886","46,0696924","11,1210886"
